{
  "type": "FeatureCollection",
  "features": [
    {
      "type": "Feature",
      "properties": {
        "name": "Andaman and Nicobar Islands"
      },
      "geometry": {
        "type": "Point",
        "coordinates": [92.7264, 11.7401]
      }
    },
    {
      "type": "Feature",
      "properties": {
        "name": "Andhra Pradesh"
      },
      "geometry": {
        "type": "Point",
        "coordinates": [79.74, 15.9129]
      }
    },
    {
      "type": "Feature",
      "properties": {
        "name": "Arunachal Pradesh"
      },
      "geometry": {
        "type": "Point",
        "coordinates": [94.7278, 28.218]
      }
    },
    {
      "type": "Feature",
      "properties": {
        "name": "Assam"
      },
      "geometry": {
        "type": "Point",
        "coordinates": [92.9376, 26.2006]
      }
    },
    {
      "type": "Feature",
      "properties": {
        "name": "Bihar"
      },
      "geometry": {
        "type": "Point",
        "coordinates": [85.3131, 25.0961]
      }
    },
    {
      "type": "Feature",
      "properties": {
        "name": "Chandigarh"
      },
      "geometry": {
        "type": "Point",
        "coordinates": [76.7794, 30.7333]
      }
    },
    {
      "type": "Feature",
      "properties": {
        "name": "Chhattisgarh"
      },
      "geometry": {
        "type": "Point",
        "coordinates": [81.8661, 21.2787]
      }
    },
    {
      "type": "Feature",
      "properties": {
        "name": "Dadra and Nagar Haveli and Daman and Diu"
      },
      "geometry": {
        "type": "Point",
        "coordinates": [72.8508, 20.1809]
      }
    },
    {
      "type": "Feature",
      "properties": {
        "name": "Delhi"
      },
      "geometry": {
        "type": "Point",
        "coordinates": [77.1025, 28.7041]
      }
    },
    {
      "type": "Feature",
      "properties": {
        "name": "Goa"
      },
      "geometry": {
        "type": "Point",
        "coordinates": [74.124, 15.2993]
      }
    },
    {
      "type": "Feature",
      "properties": {
        "name": "Gujarat"
      },
      "geometry": {
        "type": "Point",
        "coordinates": [71.1924, 22.2587]
      }
    },
    {
      "type": "Feature",
      "properties": {
        "name": "Haryana"
      },
      "geometry": {
        "type": "Point",
        "coordinates": [76.0856, 29.0588]
      }
    },
    {
      "type": "Feature",
      "properties": {
        "name": "Himachal Pradesh"
      },
      "geometry": {
        "type": "Point",
        "coordinates": [77.1734, 31.1048]
      }
    },
    {
      "type": "Feature",
      "properties": {
        "name": "Jharkhand"
      },
      "geometry": {
        "type": "Point",
        "coordinates": [85.2799, 23.6102]
      }
    },
    {
      "type": "Feature",
      "properties": {
        "name": "Karnataka"
      },
      "geometry": {
        "type": "Point",
        "coordinates": [75.7139, 15.3173]
      }
    },
    {
      "type": "Feature",
      "properties": {
        "name": "Kerala"
      },
      "geometry": {
        "type": "Point",
        "coordinates": [76.2711, 10.8505]
      }
    },
    {
      "type": "Feature",
      "properties": {
        "name": "Ladakh"
      },
      "geometry": {
        "type": "Point",
        "coordinates": [77.577, 34.2268]
      }
    },
    {
      "type": "Feature",
      "properties": {
        "name": "Lakshadweep"
      },
      "geometry": {
        "type": "Point",
        "coordinates": [72.1833, 10.5667]
      }
    },
    {
      "type": "Feature",
      "properties": {
        "name": "Madhya Pradesh"
      },
      "geometry": {
        "type": "Point",
        "coordinates": [78.6569, 22.9734]
      }
    },
    {
      "type": "Feature",
      "properties": {
        "name": "Maharashtra"
      },
      "geometry": {
        "type": "Point",
        "coordinates": [75.7139, 19.7515]
      }
    },
    {
      "type": "Feature",
      "properties": {
        "name": "Manipur"
      },
      "geometry": {
        "type": "Point",
        "coordinates": [93.9063, 24.6637]
      }
    },
    {
      "type": "Feature",
      "properties": {
        "name": "Meghalaya"
      },
      "geometry": {
        "type": "Point",
        "coordinates": [91.3662, 25.467]
      }
    },
    {
      "type": "Feature",
      "properties": {
        "name": "Mizoram"
      },
      "geometry": {
        "type": "Point",
        "coordinates": [92.9376, 23.1645]
      }
    },
    {
      "type": "Feature",
      "properties": {
        "name": "Nagaland"
      },
      "geometry": {
        "type": "Point",
        "coordinates": [94.5624, 26.1584]
      }
    },
    {
      "type": "Feature",
      "properties": {
        "name": "Odisha"
      },
      "geometry": {
        "type": "Point",
        "coordinates": [85.0985, 20.9517]
      }
    },
    {
      "type": "Feature",
      "properties": {
        "name": "Puducherry"
      },
      "geometry": {
        "type": "Point",
        "coordinates": [79.8083, 11.9416]
      }
    },
    {
      "type": "Feature",
      "properties": {
        "name": "Punjab"
      },
      "geometry": {
        "type": "Point",
        "coordinates": [75.3412, 31.1471]
      }
    },
    {
      "type": "Feature",
      "properties": {
        "name": "Rajasthan"
      },
      "geometry": {
        "type": "Point",
        "coordinates": [74.2179, 27.0238]
      }
    },
    {
      "type": "Feature",
      "properties": {
        "name": "Sikkim"
      },
      "geometry": {
        "type": "Point",
        "coordinates": [88.5122, 27.533]
      }
    },
    {
      "type": "Feature",
      "properties": {
        "name": "Tamil Nadu"
      },
      "geometry": {
        "type": "Point",
        "coordinates": [78.6569, 11.1271]
      }
    },
    {
      "type": "Feature",
      "properties": {
        "name": "Telangana"
      },
      "geometry": {
        "type": "Point",
        "coordinates": [79.0193, 18.1124]
      }
    },
    {
      "type": "Feature",
      "properties": {
        "name": "Tripura"
      },
      "geometry": {
        "type": "Point",
        "coordinates": [91.9882, 23.9408]
      }
    },
    {
      "type": "Feature",
      "properties": {
        "name": "Uttar Pradesh"
      },
      "geometry": {
        "type": "Point",
        "coordinates": [80.9462, 26.8467]
      }
    },
    {
      "type": "Feature",
      "properties": {
        "name": "Uttarakhand"
      },
      "geometry": {
        "type": "Point",
        "coordinates": [79.0193, 30.0668]
      }
    },
    {
      "type": "Feature",
      "properties": {
        "name": "West Bengal"
      },
      "geometry": {
        "type": "Point",
        "coordinates": [87.855, 22.9868]
      }
    }
  ]
}
